{
  "title": "2026 美加单向跨国自驾：波特兰购物 - 查克纳特 - 落基山脉 (9 天)",
  "range": {
    "start": "2026-04-18",
    "end": "2026-04-27"
  },
  "days": [
    {
      "date": "2026-04-18",
      "city": "北京 → 波特兰",
      "items": [
        {
          "id": "2026-04-18-01",
          "time": "17:25",
          "place": "北京首都机场 (PEK)",
          "detailType": "旅途",
          "detail": "- 启程前往波特兰，建议提前确认为期 9 天的跨国异地还车合同\n- 4 个成年人建议租用全尺寸 SUV (如 Chevrolet Suburban) 以保证行李空间",
          "lat": 40.0799,
          "lng": 116.6031,
          "mode": "flight"
        }
      ]
    },
    {
      "date": "2026-04-19",
      "city": "波特兰",
      "items": [
        {
          "id": "2026-04-19-01",
          "time": "11:00",
          "place": "波特兰国际机场 (PDX)",
          "detailType": "旅途",
          "detail": "- 落地取车。波特兰免消费税，是此行最核心的购物站",
          "lat": 45.5898,
          "lng": -122.5951,
          "mode": "drive"
        },
        {
          "id": "2026-04-19-02",
          "time": "14:30",
          "place": "Woodburn Premium Outlets",
          "detailType": "购物",
          "detail": "- 免税采购始祖鸟 (Arc'teryx) 等户外装备，应对落基山早春气候\n- 这里没有西雅图或加拿大的高额消费税，价格优势明显",
          "lat": 45.1611,
          "lng": -122.8841,
          "mode": "drive"
        }
      ]
    },
    {
      "date": "2026-04-20",
      "city": "波特兰 → 温哥华",
      "items": [
        {
          "id": "2026-04-20-01",
          "time": "11:00",
          "place": "波音未来飞行博物馆 (Boeing Future of Flight)",
          "detailType": "文化",
          "detail": "- 【可选】位于埃弗里特 (Everett)，参观波音工厂组装线，感受航空工业震撼\n- 避开西雅图市区拥堵，沿 I-5 高速北上",
          "lat": 47.9253,
          "lng": -122.2705,
          "mode": "drive"
        },
        {
          "id": "2026-04-20-02",
          "time": "14:30",
          "place": "查克纳特景观大道 (Chuckanut Drive)",
          "detailType": "自然景观",
          "detail": "- 驶入 WA-11 公路，避开单调的高速，享受 30 公里的悬崖海岸线风光\n- 在俯瞰萨米什湾的观景点停靠，随后经 Peace Arch 关口进入加拿大",
          "lat": 48.6517,
          "lng": -122.4850,
          "mode": "drive"
        }
      ]
    },
    {
      "date": "2026-04-21",
      "city": "温哥华 → 坎卢普斯",
      "items": [
        {
          "id": "2026-04-21-01",
          "time": "10:00",
          "place": "希望镇 (Hope)",
          "detailType": "文化",
          "detail": "- 沿横加公路 (Hwy 1) 进山。希望镇作为《第一滴血》拍摄地，是绝佳的伸展休息点",
          "lat": 49.3802,
          "lng": -121.4415,
          "mode": "drive"
        },
        {
          "id": "2026-04-21-02",
          "time": "13:30",
          "place": "地狱门 (Hell's Gate)",
          "detailType": "自然景观",
          "detail": "- 乘坐空中缆车跨越峡谷，观察菲沙河最湍急的“咽喉”地段",
          "lat": 49.7797,
          "lng": -121.4485,
          "mode": "walk"
        }
      ]
    },
    {
      "date": "2026-04-22",
      "city": "坎卢普斯 → 班夫",
      "items": [
        {
          "id": "2026-04-22-01",
          "time": "11:00",
          "place": "最后一根钉 (The Last Spike)",
          "detailType": "文化",
          "detail": "- 加拿大太平洋铁路贯通纪念地，了解 19 世纪的工业史",
          "lat": 50.9754,
          "lng": -118.5367,
          "mode": "drive"
        },
        {
          "id": "2026-04-22-02",
          "time": "16:30",
          "place": "班夫上温泉 (Upper Hot Springs)",
          "detailType": "风土人情",
          "detail": "- 抵达班夫。在 4 月的寒意中体验高山露天温泉，直面雪山美景",
          "lat": 51.1504,
          "lng": -115.5620,
          "mode": "walk"
        }
      ]
    },
    {
      "date": "2026-04-23",
      "city": "班夫国家公园",
      "items": [
        {
          "id": "2026-04-23-01",
          "time": "09:30",
          "place": "露易丝湖 (Lake Louise)",
          "detailType": "自然景观",
          "detail": "- 4 月末的冰湖呈现独特的半融化蓝，是落基山最经典的构图",
          "lat": 51.4177,
          "lng": -116.2172,
          "mode": "walk"
        },
        {
          "id": "2026-04-23-02",
          "time": "14:30",
          "place": "班夫缆车 (Banff Gondola)",
          "detailType": "自然景观",
          "detail": "- 登上硫磺山顶，环视 6 条落基山脉的雄伟全景",
          "lat": 51.1476,
          "lng": -115.5555,
          "mode": "walk"
        }
      ]
    },
    {
      "date": "2026-04-24",
      "city": "班夫 → 基洛纳 (回程：山谷线)",
      "items": [
        {
          "id": "2026-04-24-01",
          "time": "10:30",
          "place": "冰川国家公园 (Rogers Pass)",
          "detailType": "自然景观",
          "detail": "- 穿越峻峭山口，回程走 Hwy 97B 接 Hwy 97，欣赏不同的地貌变化",
          "lat": 51.3000,
          "lng": -117.5200,
          "mode": "drive"
        },
        {
          "id": "2026-04-24-02",
          "time": "16:30",
          "place": "Mission Hill 酒庄",
          "detailType": "文化",
          "detail": "- 进入奥肯那根湖区，在建筑如艺术品般的酒庄品鉴顶级冰酒",
          "lat": 49.8358,
          "lng": -119.5878,
          "mode": "walk"
        }
      ]
    },
    {
      "date": "2026-04-25",
      "city": "基洛纳 → 温哥华",
      "items": [
        {
          "id": "2026-04-25-01",
          "time": "10:00",
          "place": "奥肯那根湖 (Okanagan Lake)",
          "detailType": "自然景观",
          "detail": "- 湖畔晨练或寻找水怪传说，随后驾车返回温哥华",
          "lat": 49.8880,
          "lng": -119.4960,
          "mode": "drive"
        },
        {
          "id": "2026-04-25-02",
          "time": "18:00",
          "place": "列治文 (Richmond)",
          "detailType": "吃的",
          "detail": "- 完成环线。享用温哥华顶级的粤式海鲜中餐，慰劳数日的长途驾驶",
          "lat": 49.1666,
          "lng": -123.1336,
          "mode": "walk"
        }
      ]
    },
    {
      "date": "2026-04-26",
      "city": "温哥华",
      "items": [
        {
          "id": "2026-04-26-01",
          "time": "10:00",
          "place": "史丹利公园 (Stanley Park)",
          "detailType": "自然景观",
          "detail": "- 租车骑行或步行，最后享受一段海天交界的都市宁静",
          "lat": 49.3017,
          "lng": -123.1417,
          "mode": "walk"
        },
        {
          "id": "2026-04-26-02",
          "time": "15:00",
          "place": "煤气镇 (Gastown)",
          "detailType": "文化",
          "detail": "- 观看蒸汽钟报时，在独立艺术店补齐最后的回国礼品",
          "lat": 49.2838,
          "lng": -123.1055,
          "mode": "walk"
        }
      ]
    },
    {
      "date": "2026-04-27",
      "city": "温哥华 → 北京",
      "items": [
        {
          "id": "2026-04-27-01",
          "time": "07:30",
          "place": "温哥华国际机场 (YVR)",
          "detailType": "旅途",
          "detail": "- 机场异地还车（回国高峰建议预留 3 小时）。满载免税战利品直飞回京",
          "lat": 49.1967,
          "lng": -123.1815,
          "mode": "flight"
        }
      ]
    }
  ]
}