{
  "title": "2026 年 4 月中旬 · 加拿大东部",
  "range": {
    "start": "2026-04-12",
    "end": "2026-04-17"
  },
  "days": [
    {
      "date": "2026-04-12",
      "city": "多伦多",
      "items": [
        {
          "id": "2026-04-12-01",
          "time": "08:40",
          "place": "多伦多皮尔逊国际机场 (YYZ)",
          "detailType": "旅途",
          "detail": "- 抵达后取行李与交通卡\n- 关注机场到市中心 UP Express 的班次\n- 初见多伦多天际线",
          "lat": 43.6777,
          "lng": -79.6248,
          "mode": "walk"
        },
        {
          "id": "2026-04-12-02",
          "time": "11:30",
          "place": "圣劳伦斯市场",
          "detailType": "吃的",
          "detail": "- 经典 Bacon Peameal 三明治\n- 体验老市场的市井气\n- 观察多伦多移民文化的融合",
          "lat": 43.6487,
          "lng": -79.3716,
          "mode": "walk"
        },
        {
          "id": "2026-04-12-03",
          "time": "15:00",
          "place": "加拿大国家电视塔 (CN Tower)",
          "detailType": "自然景观",
          "detail": "- 俯瞰安大略湖与城市网格\n- 了解多伦多作为港口城市的地理优势\n- 若天气允许体验玻璃地板",
          "lat": 43.6426,
          "lng": -79.3871,
          "mode": "walk"
        }
      ]
    },
    {
      "date": "2026-04-13",
      "city": "尼亚加拉瀑布 (往返多伦多)",
      "items": [
        {
          "id": "2026-04-13-01",
          "time": "08:00",
          "place": "多伦多市区 → 尼亚加拉瀑布",
          "detailType": "旅途",
          "detail": "- 选择自驾或 GO Transit\n- 沿 QEW 途经葡萄酒产区\n- 留意早春湖岸雾气",
          "lat": 43.0896,
          "lng": -79.0849,
          "mode": "drive",
          "route": {
            "from": "Toronto",
            "to": "Niagara Falls",
            "duration": "1.5-2h"
          }
        },
        {
          "id": "2026-04-13-02",
          "time": "10:30",
          "place": "马蹄瀑布观景区",
          "detailType": "自然景观",
          "detail": "- 了解尼亚加拉断崖的地质成因\n- 观察水雾形成的微气候\n- 若开放可考虑乘坐 Hornblower",
          "lat": 43.0799,
          "lng": -79.0747,
          "mode": "walk"
        },
        {
          "id": "2026-04-13-03",
          "time": "18:00",
          "place": "返回多伦多市区",
          "detailType": "旅途",
          "detail": "- 日落时分回城\n- 备好简单晚餐\n- 留出休息时间",
          "lat": 43.6532,
          "lng": -79.3832,
          "mode": "drive",
          "route": {
            "from": "Niagara Falls",
            "to": "Toronto",
            "duration": "1.5-2h"
          }
        }
      ]
    },
    {
      "date": "2026-04-14",
      "city": "多伦多 → 蒙特利尔",
      "items": [
        {
          "id": "2026-04-14-01",
          "time": "09:00",
          "place": "多伦多联合车站 (Union Station)",
          "detailType": "文化",
          "detail": "- 了解加拿大铁路史\n- 选择飞行或铁路转场\n- 记录建筑风格细节",
          "lat": 43.6456,
          "lng": -79.3806,
          "mode": "walk"
        },
        {
          "id": "2026-04-14-02",
          "time": "12:20",
          "place": "多伦多 (YYZ) → 蒙特利尔 (YUL)",
          "detailType": "旅途",
          "detail": "- 航班为示例，可替换真实航班\n- 机场转换记得预留时间\n- 留意航程约 1h15m",
          "lat": 45.4706,
          "lng": -73.7408,
          "mode": "flight",
          "flightNo": "AC401",
          "route": {
            "from": "YYZ",
            "to": "YUL",
            "duration": "1h15m"
          }
        },
        {
          "id": "2026-04-14-03",
          "time": "16:30",
          "place": "老港 (Old Port of Montreal)",
          "detailType": "风土人情",
          "detail": "- 漫步圣劳伦斯河畔\n- 观察双语城市的街头标识\n- 选择一家法式咖啡馆",
          "lat": 45.5075,
          "lng": -73.5536,
          "mode": "walk"
        }
      ]
    },
    {
      "date": "2026-04-15",
      "city": "蒙特利尔",
      "items": [
        {
          "id": "2026-04-15-01",
          "time": "09:30",
          "place": "圣母大教堂 (Notre-Dame Basilica)",
          "detailType": "文化",
          "detail": "- 了解新法兰西时期的宗教历史\n- 关注彩绘玻璃与木雕细节\n- 记得查看开放时间",
          "lat": 45.5045,
          "lng": -73.5560,
          "mode": "walk"
        },
        {
          "id": "2026-04-15-02",
          "time": "13:00",
          "place": "蒙特利尔地下城 (RESO) 入口区",
          "detailType": "地理",
          "detail": "- 了解城市冬季生存体系\n- 观察地上与地下的功能分布\n- 体验室内步行网络",
          "lat": 45.5017,
          "lng": -73.5719,
          "mode": "walk"
        },
        {
          "id": "2026-04-15-03",
          "time": "18:30",
          "place": "圣丹尼斯街 (Rue Saint-Denis)",
          "detailType": "吃的",
          "detail": "- 体验法语区餐厅氛围\n- 推荐尝试 poutine\n- 记录不同口音与街区风格",
          "lat": 45.5160,
          "lng": -73.5636,
          "mode": "walk"
        }
      ]
    },
    {
      "date": "2026-04-16",
      "city": "蒙特利尔",
      "items": [
        {
          "id": "2026-04-16-01",
          "time": "10:00",
          "place": "皇家山公园 (Mount Royal Park)",
          "detailType": "自然景观",
          "detail": "- 远眺圣劳伦斯河与城市全景\n- 观察春季融雪后的植被变化\n- 了解城市绿带规划",
          "lat": 45.5049,
          "lng": -73.5878,
          "mode": "walk"
        },
        {
          "id": "2026-04-16-02",
          "time": "14:30",
          "place": "蒙特利尔美术馆",
          "detailType": "文化",
          "detail": "- 重点关注加拿大现代艺术\n- 观察法语文化语境的策展方式\n- 若时间充裕，去 museum cafe",
          "lat": 45.4987,
          "lng": -73.5791,
          "mode": "walk"
        }
      ]
    },
    {
      "date": "2026-04-17",
      "city": "蒙特利尔 → 返程",
      "items": [
        {
          "id": "2026-04-17-01",
          "time": "09:00",
          "place": "让-塔隆市场 (Jean-Talon Market)",
          "detailType": "风土人情",
          "detail": "- 体验魁北克的本地食材\n- 观察法语区的日常生活\n- 采购适合带走的小食",
          "lat": 45.5352,
          "lng": -73.6152,
          "mode": "walk"
        },
        {
          "id": "2026-04-17-02",
          "time": "14:00",
          "place": "蒙特利尔特鲁多国际机场 (YUL)",
          "detailType": "旅途",
          "detail": "- 办理返程航班\n- 预留安检时间\n- 整理行程照片",
          "lat": 45.4706,
          "lng": -73.7408,
          "mode": "flight",
          "flightNo": "AC472"
        }
      ]
    }
  ]
}
